[
  {
    "name": "Praça de Pedágio - Jacarepaguá",
    "lat": -22.9391,
    "lng": -43.3886
  },
  {
    "name": "Praça de Pedágio - Linha Amarela",
    "lat": -22.8794,
    "lng": -43.2725
  },
  {
    "name": "Praça de Pedágio - Nova Dutra (Km 207)",
    "lat": -23.3974,
    "lng": -46.3647
  },
  {
    "name": "Praça de Pedágio - Bandeirantes",
    "lat": -23.3574,
    "lng": -46.7473
  },
  {
    "name": "Praça de Pedágio - Anchieta",
    "lat": -23.8519,
    "lng": -46.4066
  },
  {
    "name": "Praça de Pedágio - Imigrantes",
    "lat": -23.8814,
    "lng": -46.4001
  },
  {
    "name": "Praça de Pedágio - Castello Branco",
    "lat": -23.5046,
    "lng": -47.1855
  },
  {
    "name": "Praça de Pedágio - Anhanguera",
    "lat": -23.0532,
    "lng": -47.1345
  },
  {
    "name": "Praça de Pedágio - Régis Bittencourt",
    "lat": -24.0941,
    "lng": -47.1379
  },
  {
    "name": "Praça de Pedágio - Fernão Dias",
    "lat": -22.7446,
    "lng": -46.1317
  },
  {
    "name": "Praça de Pedágio - SP-270 (Raposo Tavares)",
    "lat": -23.5687,
    "lng": -47.4583
  },
  {
    "name": "Praça de Pedágio - SP-055 (Padre Manoel da Nóbrega)",
    "lat": -24.1769,
    "lng": -46.7928
  },
  {
    "name": "Praça de Pedágio - SP-075 (Santos Dumont)",
    "lat": -23.1078,
    "lng": -47.2293
  },
  {
    "name": "Praça de Pedágio - SP-330 (Anhanguera) Limeira - Norte",
    "lat": -22.5849,
    "lng": -47.4068
  },
  {
    "name": "Praça de Pedágio - SP-330 (Anhanguera) Limeira - Sul",
    "lat": -22.5949,
    "lng": -47.4168
  },
  {
    "name": "Praça de Pedágio - SP-348 (Bandeirantes) Caieiras",
    "lat": -23.3675,
    "lng": -46.7522
  },
  {
    "name": "Praça de Pedágio - SP-021 (Rodoanel) Osasco",
    "lat": -23.4841,
    "lng": -46.835
  },
  {
    "name": "Praça de Pedágio - SP-300 (Marechal Rondon) Bauru",
    "lat": -22.3106,
    "lng": -49.0471
  },
  {
    "name": "Praça de Pedágio - SP-310 (Washington Luís) Araraquara - Norte",
    "lat": -21.7944,
    "lng": -48.1747
  },
  {
    "name": "Praça de Pedágio - SP-310 (Washington Luís) Araraquara - Sul",
    "lat": -21.8144,
    "lng": -48.1947
  },
  {
    "name": "Praça de Pedágio - SP-280 (Castello Branco) Boituva",
    "lat": -23.2861,
    "lng": -47.6658
  },
  {
    "name": "Praça de Pedágio - SP-127 (Fausto Santomauro) Rio Claro",
    "lat": -22.4114,
    "lng": -47.5486
  },
  {
    "name": "Praça de Pedágio - Via Lagos",
    "lat": -22.8694,
    "lng": -42.6219
  },
  {
    "name": "Praça de Pedágio - Ponte Rio-Niterói",
    "lat": -22.8667,
    "lng": -43.1869
  },
  {
    "name": "Praça de Pedágio - Rodovia dos Lagos",
    "lat": -22.8089,
    "lng": -42.4982
  },
  {
    "name": "Praça de Pedágio - BR-101 (Casimiro de Abreu)",
    "lat": -22.4789,
    "lng": -42.2036
  },
  {
    "name": "Praça de Pedágio - RJ-124 (Via Lagos) São Pedro da Aldeia",
    "lat": -22.7361,
    "lng": -42.1044
  },
  {
    "name": "Praça de Pedágio - RJ-116 (Itaboraí-Nova Friburgo)",
    "lat": -22.4522,
    "lng": -42.7636
  },
  {
    "name": "Praça de Pedágio - BR-040 (Rio-Petrópolis)",
    "lat": -22.5322,
    "lng": -43.2717
  },
  {
    "name": "Praça de Pedágio - BR-116 (Rio-Teresópolis)",
    "lat": -22.3958,
    "lng": -42.9772
  },
  {
    "name": "Praça de Pedágio - SP-255 (Boa Esperança do Sul)",
    "lat": -21.9422,
    "lng": -48.3953
  },
  {
    "name": "Praça de Pedágio - SP-225 (Brotas)",
    "lat": -22.2875,
    "lng": -48.1253
  },
  {
    "name": "Praça de Pedágio - SP-225 (Jaú)",
    "lat": -22.2564,
    "lng": -48.5578
  },
  {
    "name": "Praça de Pedágio - SP-225 (Dois Córregos)",
    "lat": -22.3647,
    "lng": -48.3819
  }
]