[
  {
    "name": "Pedágio SP-225 (Brotas)",
    "lat": -22.2759,
    "lng": -48.1234,
    "rodovia": "SP-225"
  },
  {
    "name": "Pedágio SP-225 (Dois Córregos)",
    "lat": -22.3674,
    "lng": -48.3798,
    "rodovia": "SP-225"
  },
  {
    "name": "Pedágio SP-225 (Itirapina)",
    "lat": -22.2478,
    "lng": -47.9012,
    "rodovia": "SP-225"
  },
  {
    "name": "Pedágio SP-310 (São Carlos)",
    "lat": -22.0167,
    "lng": -47.8900,
    "rodovia": "SP-310"
  },
  {
    "name": "Pedágio SP-304 (Jaú)",
    "lat": -22.2987,
    "lng": -48.5580,
    "rodovia": "SP-304"
  },
  {
    "name": "Pedágio SP-294 (Bauru)",
    "lat": -22.3256,
    "lng": -49.0777,
    "rodovia": "SP-294"
  },
  {
    "name": "Pedágio SP-330 (Limeira)",
    "lat": -22.5649,
    "lng": -47.4012,
    "rodovia": "SP-330"
  },
  {
    "name": "Pedágio SP-300 (Botucatu)",
    "lat": -22.8859,
    "lng": -48.4437,
    "rodovia": "SP-300"
  },
  {
    "name": "Pedágio SP-280 (Sorocaba)",
    "lat": -23.5032,
    "lng": -47.4583,
    "rodovia": "SP-280"
  },
  {
    "name": "Pedágio SP-127 (Tatuí)",
    "lat": -23.3654,
    "lng": -47.8521,
    "rodovia": "SP-127"
  },
  {
    "name": "Pedágio SP-255 (Araraquara)",
    "lat": -21.8154,
    "lng": -48.1755,
    "rodovia": "SP-255"
  }
]